name,id,lat,long,type,tags,rank,mostSimilar,top3InTransitions,top3OutTransitions,outTransFrequency
Acquarena,1,46.7192275,11.6572294,Sportstätte,"['water', 'sport and recreation facilities', 'indoor']",2.0,"['Schwimmbad Alpinpool', 'Vertikale Kletterzentrum Brixen', 'Freischwimmbad Feldthurns']","['Plose', 'Diözesanmuseum Hofburg Brixen', 'Augustiner Chorherrenstift Neustift']","['Plose', 'Diözesanmuseum Hofburg Brixen', 'Tourism_Agency_Events']",677
Antiquarium Sebatum,4,46.783028753731614,11.902474261899073,Museum,"['cultural and religious institutions', 'indoor']",55.0,"['Kuratorium des Stiftes Innichen', 'Schreibmaschinenmuseum ""Peter Mitterhofer""', 'Südtiroler Bergbaumuseum Kornkasten Steinhaus']","['Acquarena', 'Schwimmbad Alpinpool', 'Schludernser Torturm']","['Messner Mountain Museum Ripa', 'Südtiroler Burgeninstitut - Burg Taufers', 'Festung Franzensfeste']",6
Archeoparc,5,46.721839700000004,10.860789599999999,Museum,"['cultural and religious institutions', 'indoor', 'outdoor']",44.0,"['Museum Schloss Moos-Schulthaus', 'Archeoparc Villanders', 'Merkantilmuseum']","['Eisenbahnwelt', 'Messner Mountain Museum Ripa', 'Acquarena']","['Messner Mountain Museum Ripa', 'Messner Mountain Museum Juval', 'Acquarena']",21
Archeoparc Villanders,6,46.631871893698026,11.540870035806586,Museum,"['cultural and religious institutions', 'indoor', 'outdoor']",69.0,"['Museum Schloss Moos-Schulthaus', 'Merkantilmuseum', 'Archeoparc']","['Messner Mountain Museum Juval', 'Acquarena', 'Nesselbahn']","['Acquarena', 'Schwimmbad Alpinpool', 'Schludernser Torturm']",0
Augustiner Chorherrenstift Neustift,7,46.74094275,11.651894043399755,Museum,"['protected cultural heritage', 'cultural and religious institutions', 'indoor']",6.0,"['Kuratorium des Stiftes Innichen', 'Schreibmaschinenmuseum ""Peter Mitterhofer""', 'Kloster St. Johann in Müstair']","['Südtiroler Archäologiemuseum', 'Diözesanmuseum Hofburg Brixen', 'Tourism_Agency_Events']","['Diözesanmuseum Hofburg Brixen', 'Acquarena', 'Plose']",1209
BunkerMooseum,9,46.8307549,11.1694596,Museum,"['cultural and religious institutions', 'indoor']",61.0,"['Kuratorium des Stiftes Innichen', 'Schreibmaschinenmuseum ""Peter Mitterhofer""', 'Südtiroler Bergbaumuseum Kornkasten Steinhaus']","['Acquarena', 'Schwimmbad Alpinpool', 'Schludernser Torturm']","['Museum Passeier - Andreas Hofer', 'Acquarena', 'Nesselbahn']",4
Burg Hocheppan,10,46.4925375,11.2422954,Museum,"['protected cultural heritage', 'cultural and religious institutions', 'indoor', 'outdoor']",67.0,"['Churburg', 'Kloster St. Johann in Müstair', 'Südtiroler Obstbaumuseum']","['Südtiroler Archäologiemuseum', 'Acquarena', 'Nesselbahn']","['Acquarena', 'Schwimmbad Alpinpool', 'Schludernser Torturm']",0
Churburg,11,46.6635393,10.588729774639699,Museum,"['protected cultural heritage', 'cultural and religious institutions', 'indoor', 'outdoor']",99.0,"['Kloster St. Johann in Müstair', 'Burg Hocheppan', 'Südtiroler Obstbaumuseum']","['Acquarena', 'Schwimmbad Alpinpool', 'Schludernser Torturm']","['Acquarena', 'Schwimmbad Alpinpool', 'Schludernser Torturm']",0
Diözesanmuseum Hofburg Brixen,13,46.7147023,11.6556498,Museum,"['protected cultural heritage', 'cultural and religious institutions', 'indoor', 'outdoor']",4.0,"['Churburg', 'Kloster St. Johann in Müstair', 'Burg Hocheppan']","['Plose', 'Augustiner Chorherrenstift Neustift', 'Pharmaziemuseum Brixen']","['Pharmaziemuseum Brixen', 'Acquarena', 'Plose']",1619
Dokumentationszentrum Culten,14,46.549876899999994,11.0085621,Museum,"['cultural and religious institutions', 'indoor']",99.0,"['Kuratorium des Stiftes Innichen', 'Schreibmaschinenmuseum ""Peter Mitterhofer""', 'Südtiroler Bergbaumuseum Kornkasten Steinhaus']","['Acquarena', 'Schwimmbad Alpinpool', 'Schludernser Torturm']","['Acquarena', 'Schwimmbad Alpinpool', 'Schludernser Torturm']",0
Dolomythos,15,46.733219535334044,12.279788250803273,Museum,"['protected natural heritage', 'cultural and religious institutions', 'indoor']",53.0,"['Fremdenverkehrsmuseum Hochpustertal', 'Kuratorium des Stiftes Innichen', 'Südtiroler Bergbaumuseum Kornkasten Steinhaus']","['Acquarena', 'Schwimmbad Alpinpool', 'Schludernser Torturm']","['Acquarena', 'Schwimmbad Alpinpool', 'Schludernser Torturm']",0
Domschatzkammer Bozen,16,46.497684190485295,11.35389156983986,Museum,"['cultural and religious institutions', 'indoor']",58.0,"['Kuratorium des Stiftes Innichen', 'Schreibmaschinenmuseum ""Peter Mitterhofer""', 'Südtiroler Bergbaumuseum Kornkasten Steinhaus']","['Südtiroler Archäologiemuseum', 'Acquarena', 'Nesselbahn']","['Südtiroler Archäologiemuseum', 'Merkantilmuseum', 'Acquarena']",4
Dorfmuseum Gufidaun,17,46.648397820251816,11.601917998678045,Museum,"['cultural and religious institutions', 'indoor']",99.0,"['Kuratorium des Stiftes Innichen', 'Schreibmaschinenmuseum ""Peter Mitterhofer""', 'Südtiroler Bergbaumuseum Kornkasten Steinhaus']","['Acquarena', 'Schwimmbad Alpinpool', 'Schludernser Torturm']","['Acquarena', 'Schwimmbad Alpinpool', 'Schludernser Torturm']",0
Dorfmuseum Tramin,18,46.34139329999999,11.2401031,Museum,"['cultural and religious institutions', 'indoor']",67.0,"['Kuratorium des Stiftes Innichen', 'Schreibmaschinenmuseum ""Peter Mitterhofer""', 'Südtiroler Bergbaumuseum Kornkasten Steinhaus']","['Acquarena', 'Schwimmbad Alpinpool', 'Schludernser Torturm']","['Plose', 'Acquarena', 'Naturmuseum Südtirol']",4
Eisenbahnwelt,19,46.6693804,11.0593594,Museum,"['cultural and religious institutions', 'indoor']",39.0,"['Kuratorium des Stiftes Innichen', 'Schreibmaschinenmuseum ""Peter Mitterhofer""', 'Südtiroler Bergbaumuseum Kornkasten Steinhaus']","['Plose', 'Festung Franzensfeste', 'Acquarena']","['Archeoparc', 'Naturmuseum Südtirol', 'Südtiroler Archäologiemuseum']",17
Eishalle Brixen,20,46.7059813,11.651572199999999,Sportstätte,"['events', 'sport and recreation facilities', 'indoor']",31.0,"['Vertikale Kletterzentrum Brixen', 'Schwimmbad Alpinpool', 'Freischwimmbad Klausen']","['Plose', 'Acquarena', 'Pfannenspitze']","['Acquarena', 'Plose', 'Museum im Weißen Turm']",10
Erlebnis Kränzelhof,21,46.6271314,11.1472434,Museum,"['flora', 'events', 'tourism paths, trails and roads', 'outdoor', 'food&shopping']",56.0,"['Skilift Terenten', 'Weinbaumuseum - Schloss Rametz', 'Rohrerhaus']","['Südtiroler Obstbaumuseum', 'Acquarena', 'Naturmuseum Südtirol']","['Acquarena', 'Schwimmbad Alpinpool', 'Schludernser Torturm']",0
Erlebniswelt Capriz,22,46.8156162589124,11.737882385187724,Museum,"['events', 'indoor', 'food&shopping']",99.0,"['Lodenwelt', 'Tauferer Torturm', 'Museum Ladin Ursus ladinicus']","['Acquarena', 'Schwimmbad Alpinpool', 'Schludernser Torturm']","['Acquarena', 'Schwimmbad Alpinpool', 'Schludernser Torturm']",0
Festung Franzensfeste,23,46.7940346,11.6070764,Museum,"['events', 'cultural and religious institutions', 'indoor']",8.0,"['Tauferer Torturm', 'Museum Ladin Ursus ladinicus', 'Schloss Prösels']","['Plose', 'Augustiner Chorherrenstift Neustift', 'Diözesanmuseum Hofburg Brixen']","['Acquarena', 'Plose', 'Diözesanmuseum Hofburg Brixen']",599
Feuerwehrhelmmuseum,24,46.8417185,11.9440895,Museum,"['events', 'cultural and religious institutions', 'indoor']",61.0,"['Tauferer Torturm', 'Museum Ladin Ursus ladinicus', 'Schloss Prösels']","['Südtiroler Volkskundemuseum', 'Südtiroler Burgeninstitut - Burg Taufers', 'Acquarena']","['Acquarena', 'Schwimmbad Alpinpool', 'Schludernser Torturm']",0
Frauenmuseum,25,46.67296929017563,11.158965742856443,Museum,"['cultural and religious institutions', 'indoor']",42.0,"['Kuratorium des Stiftes Innichen', 'Schreibmaschinenmuseum ""Peter Mitterhofer""', 'Südtiroler Bergbaumuseum Kornkasten Steinhaus']","['Landesfürstliche Burg', 'Acquarena', 'Schwimmbad Alpinpool']","['Stadtmuseum Meran', 'kunst Meran', 'Tourism_Agency_Events']",19
Freibad Mühlbach,26,46.793223499999996,11.6678379,Sportstätte,"['water', 'sport and recreation facilities', 'outdoor']",99.0,"['Freischwimmbad Feldthurns', 'Freischwimmbad Klausen', 'Minigolf Meransen']","['Acquarena', 'Schwimmbad Alpinpool', 'Schludernser Torturm']","['Acquarena', 'Schwimmbad Alpinpool', 'Schludernser Torturm']",0
Freischwimmbad Feldthurns,27,46.6630154,11.5985362,Sportstätte,"['water', 'sport and recreation facilities', 'outdoor']",99.0,"['Freibad Mühlbach', 'Freischwimmbad Klausen', 'Minigolf Meransen']","['Acquarena', 'Schwimmbad Alpinpool', 'Schludernser Torturm']","['Acquarena', 'Schwimmbad Alpinpool', 'Schludernser Torturm']",0
Freischwimmbad Klausen,28,46.6466021,11.5779599,Sportstätte,"['water', 'events', 'sport and recreation facilities', 'outdoor']",99.0,"['Freischwimmbad Feldthurns', 'Freibad Mühlbach', 'Minigolf Meransen']","['Acquarena', 'Schwimmbad Alpinpool', 'Schludernser Torturm']","['Acquarena', 'Schwimmbad Alpinpool', 'Schludernser Torturm']",0
Fremdenverkehrsmuseum Hochpustertal,29,46.7382542,12.167641,Museum,"['protected natural heritage', 'cultural and religious institutions', 'indoor']",99.0,"['Museum Kloster Marienberg', 'Kuratorium des Stiftes Innichen', 'Südtiroler Bergbaumuseum Kornkasten Steinhaus']","['Acquarena', 'Schwimmbad Alpinpool', 'Schludernser Torturm']","['Acquarena', 'Schwimmbad Alpinpool', 'Schludernser Torturm']",0
Gampen Bunker,30,46.529593799999994,11.111905,Museum,"['cultural and religious institutions', 'indoor']",99.0,"['Kuratorium des Stiftes Innichen', 'Schreibmaschinenmuseum ""Peter Mitterhofer""', 'Südtiroler Bergbaumuseum Kornkasten Steinhaus']","['Acquarena', 'Schwimmbad Alpinpool', 'Schludernser Torturm']","['Acquarena', 'Schwimmbad Alpinpool', 'Schludernser Torturm']",0
Geomuseum Radein,31,46.34689764182887,11.396798600521931,Museum,"['protected natural heritage', 'indoor', 'outdoor']",48.0,"['Fremdenverkehrsmuseum Hochpustertal', 'Museum Schloss Moos-Schulthaus', 'Mineralienmuseum Kirchler']","['Tourism_Agency_Events', 'Südtiroler Archäologiemuseum', 'Acquarena']","['Südtiroler Archäologiemuseum', 'Acquarena', 'Nesselbahn']",3
Gitschberg Meransen,35,46.82249178021871,11.665001313297653,Transport,"['events', 'sport and recreation facilities', 'tourism paths, trails and roads', 'outdoor', 'food&shopping']",99.0,"['Nesselbahn', 'Jochtal', 'Skilift Terenten']","['Acquarena', 'Schwimmbad Alpinpool', 'Schludernser Torturm']","['Acquarena', 'Schwimmbad Alpinpool', 'Schludernser Torturm']",0
Imkereimuseum Plattner-Bienenhof,37,46.525074700000005,11.4277201,Museum,"['fauna', 'cultural and religious institutions', 'outdoor', 'food&shopping']",27.0,"['Weinbaumuseum - Schloss Rametz', 'Archeoparc', 'Südtiroler Obstbaumuseum']","['Schloss Velthurns', 'Plose', 'Messner Mountain Museum Firmian']","['Südtiroler Archäologiemuseum', 'Acquarena', 'Nesselbahn']",22
Jaufenburg,38,46.8017003,11.238905099999998,Museum,"['cultural and religious institutions', 'tourism paths, trails and roads', 'indoor', 'outdoor']",99.0,"['Rohrerhaus', 'Museum Schloss Moos-Schulthaus', 'Archeoparc Villanders']","['Acquarena', 'Schwimmbad Alpinpool', 'Schludernser Torturm']","['Acquarena', 'Schwimmbad Alpinpool', 'Schludernser Torturm']",0
Jochtal,41,46.842407,11.627124,Transport,"['events', 'sport and recreation facilities', 'tourism paths, trails and roads', 'outdoor', 'food&shopping']",99.0,"['Nesselbahn', 'Gitschberg Meransen', 'Skilift Terenten']","['Acquarena', 'Schwimmbad Alpinpool', 'Schludernser Torturm']","['Acquarena', 'Schwimmbad Alpinpool', 'Schludernser Torturm']",0
K.u.k. Museum Bad Egart,42,46.672940000000004,11.082018699999999,Museum,"['cultural and religious institutions', 'indoor']",40.0,"['Kuratorium des Stiftes Innichen', 'Schreibmaschinenmuseum ""Peter Mitterhofer""', 'Südtiroler Bergbaumuseum Kornkasten Steinhaus']","['Plose', 'Acquarena', 'Naturmuseum Südtirol']","['Plose', 'Acquarena', 'Naturmuseum Südtirol']",18
Pfannenspitze,43,46.691322148611434,11.745305323526795,Transport,"['events', 'sport and recreation facilities', 'tourism paths, trails and roads', 'outdoor', 'food&shopping']",3.0,"['Nesselbahn', 'Gitschberg Meransen', 'Jochtal']","['Plose', 'Palmschoß', 'Festung Franzensfeste']","['Plose', 'Palmschoß', 'Acquarena']",5731
Kloster St. Johann in Müstair,44,46.62963010000001,10.448661,Museum,"['protected cultural heritage', 'cultural and religious institutions', 'indoor']",72.0,"['Kuratorium des Stiftes Innichen', 'Schreibmaschinenmuseum ""Peter Mitterhofer""', 'Südtiroler Bergbaumuseum Kornkasten Steinhaus']","['Eisenbahnwelt', 'Acquarena', 'Palmschoß']","['Acquarena', 'Schwimmbad Alpinpool', 'Schludernser Torturm']",0
Krippenmuseum Maranatha,45,46.95183270487274,11.919201111627507,Museum,"['cultural and religious institutions', 'indoor']",25.0,"['Kuratorium des Stiftes Innichen', 'Schreibmaschinenmuseum ""Peter Mitterhofer""', 'Südtiroler Bergbaumuseum Kornkasten Steinhaus']","['Schloss Rodenegg', 'Acquarena', 'Schwimmbad Alpinpool']","['Tourism_Agency_Events', 'Acquarena', 'Naturmuseum Südtirol']",45
kunst Meran,46,46.6715742,11.1623024,Museum,"['events', 'cultural and religious institutions', 'indoor']",51.0,"['Tauferer Torturm', 'Museum Ladin Ursus ladinicus', 'Feuerwehrhelmmuseum']","['Schloss Runkelstein', 'Frauenmuseum', 'Tourism_Agency_Events']","['Acquarena', 'Pharmaziemuseum Brixen', 'Schwimmbad Alpinpool']",4
Kuratorium des Stiftes Innichen,47,46.733188369368385,12.282819235196085,Museum,"['cultural and religious institutions', 'indoor']",99.0,"['Schreibmaschinenmuseum ""Peter Mitterhofer""', 'Südtiroler Bergbaumuseum Kornkasten Steinhaus', 'Landwirtschafts-museum Brunnenburg']","['Acquarena', 'Schwimmbad Alpinpool', 'Schludernser Torturm']","['Acquarena', 'Schwimmbad Alpinpool', 'Schludernser Torturm']",0
Landesfürstliche Burg,49,46.6728533,11.162173699999999,Museum,"['cultural and religious institutions', 'indoor']",34.0,"['Kuratorium des Stiftes Innichen', 'Schreibmaschinenmuseum ""Peter Mitterhofer""', 'Südtiroler Bergbaumuseum Kornkasten Steinhaus']","['Stadtmuseum Meran', 'Tourism_Agency_Events', 'Südtiroler Landesmuseum für Kultur- und Landesgeschichte -  Schloss Tirol']","['Stadtmuseum Meran', 'Südtiroler Landesmuseum für Kultur- und Landesgeschichte -  Schloss Tirol', 'Frauenmuseum']",15
Landwirtschafts-museum Brunnenburg,50,46.6922631930762,11.148139396829711,Museum,"['cultural and religious institutions', 'indoor']",57.0,"['Kuratorium des Stiftes Innichen', 'Schreibmaschinenmuseum ""Peter Mitterhofer""', 'Südtiroler Bergbaumuseum Kornkasten Steinhaus']","['Acquarena', 'Schwimmbad Alpinpool', 'Schludernser Torturm']","['Südtiroler Landesmuseum für Kultur- und Landesgeschichte -  Schloss Tirol', 'Acquarena', 'Naturmuseum Südtirol']",3
Lodenwelt,51,46.815605600000005,11.736919699999998,Museum,"['events', 'indoor', 'food&shopping']",99.0,"['Erlebniswelt Capriz', 'Tauferer Torturm', 'Museum Ladin Ursus ladinicus']","['Acquarena', 'Schwimmbad Alpinpool', 'Schludernser Torturm']","['Acquarena', 'Schwimmbad Alpinpool', 'Schludernser Torturm']",0
Merkantilmuseum,53,46.499744352611884,11.35430918518226,Museum,"['cultural and religious institutions', 'indoor']",45.0,"['Kuratorium des Stiftes Innichen', 'Schreibmaschinenmuseum ""Peter Mitterhofer""', 'Südtiroler Bergbaumuseum Kornkasten Steinhaus']","['Domschatzkammer Bozen', 'Acquarena', 'Nesselbahn']","['Südtiroler Obstbaumuseum', 'Schloss Rodenegg', 'Museion - Museum für Moderne und Zeitgenössische Kunst']",28
Messner Mountain Museum Corones,54,46.7387791,11.9583111,Museum,"['events', 'cultural and religious institutions', 'tourism paths, trails and roads', 'indoor', 'outdoor']",14.0,"['Rohrerhaus', 'Jaufenburg', 'Messner Mountain Museum Ortles']","['Museum LUMEN', 'Augustiner Chorherrenstift Neustift', 'Acquarena']","['Museum LUMEN', 'Messner Mountain Museum Ripa', 'Acquarena']",183
Messner Mountain Museum Firmian,55,46.478306200000006,11.3017389,Museum,"['events', 'cultural and religious institutions', 'indoor', 'outdoor']",13.0,"['Museum Ladin Ursus ladinicus', 'Messner Mountain Museum Ortles', 'Schloss Prösels']","['Südtiroler Archäologiemuseum', 'Plose', 'Augustiner Chorherrenstift Neustift']","['Südtiroler Archäologiemuseum', 'Acquarena', 'Südtiroler Weinmuseum']",62
Messner Mountain Museum Juval,56,46.651626799999995,10.9680134,Museum,"['events', 'cultural and religious institutions', 'tourism paths, trails and roads', 'indoor', 'outdoor']",41.0,"['Rohrerhaus', 'Jaufenburg', 'Messner Mountain Museum Ortles']","['Messner Mountain Museum Corones', 'Archeoparc', 'Schloss Runkelstein']","['Tourism_Agency_Events', 'Archeoparc Villanders', 'Tauferer Torturm']",19
Messner Mountain Museum Ortles,57,46.5304693,10.580905699999999,Museum,"['events', 'cultural and religious institutions', 'indoor', 'outdoor']",59.0,"['Museum Ladin Ursus ladinicus', 'Schloss Prösels', 'Südtiroler Bergbaumuseum Prettau']","['Acquarena', 'Schwimmbad Alpinpool', 'Schludernser Torturm']","['Acquarena', 'Schwimmbad Alpinpool', 'Schludernser Torturm']",0
Messner Mountain Museum Ripa,58,46.794160999999995,11.939904400000001,Museum,"['events', 'cultural and religious institutions', 'indoor', 'outdoor']",12.0,"['Museum Ladin Ursus ladinicus', 'Messner Mountain Museum Ortles', 'Schloss Prösels']","['Messner Mountain Museum Corones', 'Archeoparc', 'Augustiner Chorherrenstift Neustift']","['Acquarena', 'Südtiroler Burgeninstitut - Burg Taufers', 'Südtiroler Volkskundemuseum']",89
Mineralienmuseum Kirchler,59,46.989450119645895,11.960504287040093,Museum,"['protected natural heritage', 'indoor']",63.0,"['Fremdenverkehrsmuseum Hochpustertal', 'Museum Kloster Marienberg', 'Kuratorium des Stiftes Innichen']","['Südtiroler Burgeninstitut - Burg Taufers', 'Acquarena', 'Nesselbahn']","['Acquarena', 'Schwimmbad Alpinpool', 'Schludernser Torturm']",0
Mineralienmuseum Teis,60,46.6527149,11.620324400000001,Museum,"['protected natural heritage', 'events', 'indoor']",18.0,"['Erlebniswelt Capriz', 'Lodenwelt', 'Mineralienmuseum Kirchler']","['Acquarena', 'Plose', 'Schloss Velthurns']","['Acquarena', 'Plose', 'Festung Franzensfeste']",93
Minigolf Meransen,61,46.81575540551896,11.658024718458568,Sportstätte,"['sport and recreation facilities', 'outdoor']",99.0,"['Freischwimmbad Feldthurns', 'Freibad Mühlbach', 'Freischwimmbad Klausen']","['Acquarena', 'Schwimmbad Alpinpool', 'Schludernser Torturm']","['Acquarena', 'Schwimmbad Alpinpool', 'Schludernser Torturm']",0
Multscher Museum und Stadtmuseum Sterzing,63,46.890834600000005,11.4322722,Museum,"['cultural and religious institutions', 'indoor']",36.0,"['Kuratorium des Stiftes Innichen', 'Schreibmaschinenmuseum ""Peter Mitterhofer""', 'Südtiroler Bergbaumuseum Kornkasten Steinhaus']","['Plose', 'Festung Franzensfeste', 'Südtiroler Archäologiemuseum']","['Acquarena', 'Pharmaziemuseum Brixen', 'Südtiroler Jagd- und Fischereimuseum - Schloss Wolfsthurn']",6
Museion - Museum für Moderne und Zeitgenössische Kunst,64,46.715538099999996,11.652626300000001,Museum,"['events', 'cultural and religious institutions', 'indoor']",24.0,"['Tauferer Torturm', 'Museum Ladin Ursus ladinicus', 'Schloss Prösels']","['Südtiroler Archäologiemuseum', 'Schloss Runkelstein', 'Merkantilmuseum']","['Südtiroler Archäologiemuseum', 'Naturmuseum Südtirol', 'Schloss Runkelstein']",41
Museum de Gherdeina,65,46.57392479999999,11.674645337460838,Museum,"['cultural and religious institutions', 'indoor']",35.0,"['Gampen Bunker', 'Schreibmaschinenmuseum ""Peter Mitterhofer""', 'Südtiroler Bergbaumuseum Kornkasten Steinhaus']","['Museum Ladin Ciastel de Tor', 'Acquarena', 'Nesselbahn']","['Augustiner Chorherrenstift Neustift', 'Südtiroler Archäologiemuseum', 'Diözesanmuseum Hofburg Brixen']",6
Museum im Weißen Turm,66,46.7163815,11.65758612222222,Museum,"['cultural and religious institutions', 'indoor']",19.0,"['Gampen Bunker', 'Schreibmaschinenmuseum ""Peter Mitterhofer""', 'Südtiroler Bergbaumuseum Kornkasten Steinhaus']","['Plose', 'Pharmaziemuseum Brixen', 'Diözesanmuseum Hofburg Brixen']","['Plose', 'Acquarena', 'Diözesanmuseum Hofburg Brixen']",73
Museum Kloster Marienberg,67,46.6985798,10.5069829,Museum,"['cultural and religious institutions', 'indoor']",99.0,"['Gampen Bunker', 'Schreibmaschinenmuseum ""Peter Mitterhofer""', 'Südtiroler Bergbaumuseum Kornkasten Steinhaus']","['Acquarena', 'Schwimmbad Alpinpool', 'Schludernser Torturm']","['Acquarena', 'Schwimmbad Alpinpool', 'Schludernser Torturm']",0
Museum Ladin Ciastel de Tor,68,46.680704038748,11.892846537309122,Museum,"['events', 'cultural and religious institutions', 'indoor']",34.0,"['Tauferer Torturm', 'Museum Ladin Ursus ladinicus', 'Schloss Prösels']","['Plose', 'Messner Mountain Museum Ripa', 'Museum LUMEN']","['Museum de Gherdeina', 'Acquarena', 'Nesselbahn']",38
Museum Ladin Ursus ladinicus,69,46.57079876483519,11.932309027512385,Museum,"['events', 'cultural and religious institutions', 'indoor']",62.0,"['Tauferer Torturm', 'Schloss Prösels', 'kunst Meran']","['Acquarena', 'Schwimmbad Alpinpool', 'Schludernser Torturm']","['Acquarena', 'Schwimmbad Alpinpool', 'Schludernser Torturm']",2
Museum LUMEN,70,46.740515,11.959224,Museum,"['events', 'cultural and religious institutions', 'indoor']",28.0,"['Tauferer Torturm', 'Museum Ladin Ursus ladinicus', 'Schloss Prösels']","['Messner Mountain Museum Corones', 'Acquarena', 'Nesselbahn']","['Messner Mountain Museum Corones', 'Messner Mountain Museum Ripa', 'Acquarena']",28
Museum Magie des Wassers,71,48.220312400000005,12.1018374,Museum,"['cultural and religious institutions', 'indoor']",99.0,"['Gampen Bunker', 'Schreibmaschinenmuseum ""Peter Mitterhofer""', 'Südtiroler Bergbaumuseum Kornkasten Steinhaus']","['Acquarena', 'Schwimmbad Alpinpool', 'Schludernser Torturm']","['Acquarena', 'Schwimmbad Alpinpool', 'Schludernser Torturm']",0
Museum Passeier - Andreas Hofer,72,46.801516229565436,11.238736190458482,Museum,"['events', 'cultural and religious institutions', 'indoor', 'outdoor']",37.0,"['Weinbaumuseum - Schloss Rametz', 'Rohrerhaus', 'Messner Mountain Museum Ortles']","['BunkerMooseum', 'Schloss Runkelstein', 'Acquarena']","['Diözesanmuseum Hofburg Brixen', 'Acquarena', 'Nesselbahn']",2
Museum Schloss Moos-Schulthaus,73,46.45368815000001,11.24776647394225,Museum,"['cultural and religious institutions', 'indoor', 'outdoor']",72.0,"['Schludernser Torturm', 'Archeoparc Villanders', 'Archeoparc']","['Acquarena', 'Schwimmbad Alpinpool', 'Schludernser Torturm']","['Acquarena', 'Schwimmbad Alpinpool', 'Schludernser Torturm']",0
Museum Steinegg,74,46.485742,11.455107105521678,Museum,"['cultural and religious institutions', 'indoor']",99.0,"['Gampen Bunker', 'Schreibmaschinenmuseum ""Peter Mitterhofer""', 'Südtiroler Bergbaumuseum Kornkasten Steinhaus']","['Acquarena', 'Schwimmbad Alpinpool', 'Schludernser Torturm']","['Acquarena', 'Schwimmbad Alpinpool', 'Schludernser Torturm']",0
Museum Zeitreise Mensch,75,46.313930778382186,11.224531338602759,Museum,"['cultural and religious institutions', 'indoor']",53.0,"['Gampen Bunker', 'Schreibmaschinenmuseum ""Peter Mitterhofer""', 'Südtiroler Bergbaumuseum Kornkasten Steinhaus']","['Acquarena', 'Schwimmbad Alpinpool', 'Schludernser Torturm']","['Acquarena', 'Schwimmbad Alpinpool', 'Schludernser Torturm']",0
Naturmuseum Südtirol,77,46.50126988074469,11.357366365592457,Museum,"['cultural and religious institutions', 'indoor']",20.0,"['Gampen Bunker', 'Schreibmaschinenmuseum ""Peter Mitterhofer""', 'Südtiroler Bergbaumuseum Kornkasten Steinhaus']","['Südtiroler Archäologiemuseum', 'Museion - Museum für Moderne und Zeitgenössische Kunst', 'Eisenbahnwelt']","['Südtiroler Archäologiemuseum', 'Acquarena', 'Messner Mountain Museum Firmian']",79
Nesselbahn,79,46.835742464070606,11.669954072070636,Transport,"['events', 'sport and recreation facilities', 'tourism paths, trails and roads', 'outdoor', 'food&shopping']",99.0,"['Gitschberg Meransen', 'Jochtal', 'Skilift Terenten']","['Acquarena', 'Schwimmbad Alpinpool', 'Schludernser Torturm']","['Acquarena', 'Schwimmbad Alpinpool', 'Schludernser Torturm']",0
Palmschoß,81,46.67621564404051,11.713047745083474,Transport,"['events', 'sport and recreation facilities', 'tourism paths, trails and roads', 'outdoor', 'food&shopping']",7.0,"['Nesselbahn', 'Gitschberg Meransen', 'Jochtal']","['Plose', 'Pfannenspitze', 'Acquarena']","['Plose', 'Pfannenspitze', 'Acquarena']",1915
Pharmaziemuseum Brixen,83,46.7166139,11.6582709,Museum,"['cultural and religious institutions', 'indoor']",10.0,"['Gampen Bunker', 'Schreibmaschinenmuseum ""Peter Mitterhofer""', 'Südtiroler Bergbaumuseum Kornkasten Steinhaus']","['Diözesanmuseum Hofburg Brixen', 'Plose', 'Augustiner Chorherrenstift Neustift']","['Diözesanmuseum Hofburg Brixen', 'Acquarena', 'Plose']",539
Planetarium Südtirol,84,46.438674299999995,11.4753424,Museum,"['events', 'cultural and religious institutions', 'indoor']",49.0,"['Tauferer Torturm', 'Museum Ladin Ursus ladinicus', 'Feuerwehrhelmmuseum']","['Acquarena', 'Schwimmbad Alpinpool', 'Schludernser Torturm']","['Schloss Prösels', 'Acquarena', 'Schwimmbad Alpinpool']",2
Rohrerhaus,86,46.640046000000005,11.354006300000002,Museum,"['events', 'cultural and religious institutions', 'tourism paths, trails and roads', 'indoor', 'outdoor']",99.0,"['Jaufenburg', 'Messner Mountain Museum Ortles', 'Südtiroler Bergbaumuseum Prettau']","['Acquarena', 'Schwimmbad Alpinpool', 'Schludernser Torturm']","['Acquarena', 'Schwimmbad Alpinpool', 'Schludernser Torturm']",0
Schloss Prösels,87,46.5033614,11.4990917,Museum,"['events', 'cultural and religious institutions', 'indoor']",54.0,"['Tauferer Torturm', 'Museum Ladin Ursus ladinicus', 'Feuerwehrhelmmuseum']","['Plose', 'Planetarium Südtirol', 'Acquarena']","['Südtiroler Burgenmuseum Trostburg', 'Acquarena', 'Schludernser Torturm']",2
Schloss Rodenegg,88,46.7821085,11.686005499999998,Museum,"['cultural and religious institutions', 'indoor']",15.0,"['Gampen Bunker', 'Schreibmaschinenmuseum ""Peter Mitterhofer""', 'Südtiroler Bergbaumuseum Kornkasten Steinhaus']","['Augustiner Chorherrenstift Neustift', 'Festung Franzensfeste', 'Plose']","['Augustiner Chorherrenstift Neustift', 'Krippenmuseum Maranatha', 'Diözesanmuseum Hofburg Brixen']",175
Schloss Runkelstein,89,46.517469299999995,11.359037800000001,Museum,"['cultural and religious institutions', 'indoor', 'outdoor']",16.0,"['Museum Schloss Moos-Schulthaus', 'Schludernser Torturm', 'Archeoparc Villanders']","['Südtiroler Archäologiemuseum', 'Plose', 'Museion - Museum für Moderne und Zeitgenössische Kunst']","['Südtiroler Archäologiemuseum', 'Diözesanmuseum Hofburg Brixen', 'kunst Meran']",185
Schloss Velthurns,90,46.6700207,11.6000965,Museum,"['cultural and religious institutions', 'indoor']",11.0,"['Gampen Bunker', 'Schreibmaschinenmuseum ""Peter Mitterhofer""', 'Südtiroler Bergbaumuseum Kornkasten Steinhaus']","['Festung Franzensfeste', 'Augustiner Chorherrenstift Neustift', 'Diözesanmuseum Hofburg Brixen']","['Stadtmuseum Klausen', 'Acquarena', 'Diözesanmuseum Hofburg Brixen']",282
Schludernser Torturm,91,46.6714924,10.5539127,Museum,"['cultural and religious institutions', 'indoor']",72.0,"['Gampen Bunker', 'Schreibmaschinenmuseum ""Peter Mitterhofer""', 'Südtiroler Bergbaumuseum Kornkasten Steinhaus']","['Acquarena', 'Schwimmbad Alpinpool', 'Schloss Velthurns']","['Tauferer Torturm', 'Acquarena', 'Museum Zeitreise Mensch']",1
"Schreibmaschinenmuseum ""Peter Mitterhofer""",93,46.684608600000004,11.073630999999999,Museum,"['cultural and religious institutions', 'indoor']",99.0,"['Gampen Bunker', 'Schludernser Torturm', 'Südtiroler Bergbaumuseum Kornkasten Steinhaus']","['Acquarena', 'Schwimmbad Alpinpool', 'Schloss Velthurns']","['Acquarena', 'Schwimmbad Alpinpool', 'Schloss Velthurns']",0
Schwimmbad Alpinpool,94,46.813962200000006,11.657932699999998,Sportstätte,"['water', 'health resorts', 'sport and recreation facilities', 'indoor']",99.0,"['Vertikale Kletterzentrum Brixen', 'Freibad Mühlbach', 'Freischwimmbad Feldthurns']","['Acquarena', 'Schreibmaschinenmuseum ""Peter Mitterhofer""', 'Schloss Velthurns']","['Acquarena', 'Schreibmaschinenmuseum ""Peter Mitterhofer""', 'Schloss Velthurns']",0
Silberbergwerk Villanders,96,46.6539687,11.5435707,Museum,"['protected natural heritage', 'cultural and religious institutions', 'outdoor']",22.0,"['Fremdenverkehrsmuseum Hochpustertal', 'Dolomythos', 'Geomuseum Radein']","['Schloss Velthurns', 'Plose', 'Pharmaziemuseum Brixen']","['Acquarena', 'Plose', 'Festung Franzensfeste']",80
Skilift Terenten,97,46.8265541,11.810707199999998,Museum,"['events', 'sport and recreation facilities', 'tourism paths, trails and roads', 'outdoor', 'food&shopping']",99.0,"['Weinbaumuseum - Schloss Rametz', 'Lodenwelt', 'Erlebniswelt Capriz']","['Acquarena', 'Schreibmaschinenmuseum ""Peter Mitterhofer""', 'Schloss Velthurns']","['Acquarena', 'Schreibmaschinenmuseum ""Peter Mitterhofer""', 'Schloss Velthurns']",0
St. Prokulus Museum,98,46.6528703,11.0074376,Museum,"['cultural and religious institutions', 'indoor']",47.0,"['Gampen Bunker', 'Schludernser Torturm', 'Südtiroler Bergbaumuseum Kornkasten Steinhaus']","['Acquarena', 'Schreibmaschinenmuseum ""Peter Mitterhofer""', 'Schloss Velthurns']","['Acquarena', 'Schreibmaschinenmuseum ""Peter Mitterhofer""', 'Schloss Velthurns']",0
Stadtmuseum Bruneck,99,46.796290500000005,11.940990800000002,Museum,"['cultural and religious institutions', 'indoor']",67.0,"['Gampen Bunker', 'Schludernser Torturm', 'Südtiroler Bergbaumuseum Kornkasten Steinhaus']","['Acquarena', 'Schreibmaschinenmuseum ""Peter Mitterhofer""', 'Schloss Velthurns']","['Acquarena', 'Schreibmaschinenmuseum ""Peter Mitterhofer""', 'Schloss Velthurns']",0
Stadtmuseum Klausen,100,46.63898403984187,11.564138294430485,Museum,"['cultural and religious institutions', 'indoor']",29.0,"['Gampen Bunker', 'Schludernser Torturm', 'Südtiroler Bergbaumuseum Kornkasten Steinhaus']","['Schloss Velthurns', 'Plose', 'Augustiner Chorherrenstift Neustift']","['Tourism_Agency_Events', 'Augustiner Chorherrenstift Neustift', 'Messner Mountain Museum Firmian']",12
Stadtmuseum Meran,101,46.67166620764228,11.166813428814043,Museum,"['events', 'cultural and religious institutions', 'indoor']",43.0,"['Tauferer Torturm', 'Museum Ladin Ursus ladinicus', 'Feuerwehrhelmmuseum']","['Frauenmuseum', 'Landesfürstliche Burg', 'Acquarena']","['Südtiroler Obstbaumuseum', 'Landesfürstliche Burg', 'kunst Meran']",10
Südtiroler Archäologiemuseum,102,46.49979545,11.349554272866651,Museum,"['cultural and religious institutions', 'indoor']",5.0,"['Gampen Bunker', 'Schludernser Torturm', 'Südtiroler Bergbaumuseum Kornkasten Steinhaus']","['Schloss Runkelstein', 'Diözesanmuseum Hofburg Brixen', 'Plose']","['Plose', 'Augustiner Chorherrenstift Neustift', 'Acquarena']",1507
Südtiroler Bergbaumuseum – Bergbauwelt Ridnaun Schneeberg,103,46.9286162,11.2713135,Museum,"['cultural and religious institutions', 'indoor', 'outdoor']",21.0,"['Museum Schloss Moos-Schulthaus', 'Archeoparc Villanders', 'Archeoparc']","['Plose', 'Festung Franzensfeste', 'Acquarena']","['Acquarena', 'Festung Franzensfeste', 'Südtiroler Jagd- und Fischereimuseum - Schloss Wolfsthurn']",102
Südtiroler Bergbaumuseum Kornkasten Steinhaus,104,46.995178499999994,11.980948099999999,Museum,"['cultural and religious institutions', 'indoor']",67.0,"['Gampen Bunker', 'Schludernser Torturm', 'Landwirtschafts-museum Brunnenburg']","['Südtiroler Burgeninstitut - Burg Taufers', 'Acquarena', 'Naturmuseum Südtirol']","['Museum im Weißen Turm', 'Acquarena', 'Naturmuseum Südtirol']",2
Südtiroler Bergbaumuseum Prettau,105,47.0453505,12.1203649,Museum,"['events', 'cultural and religious institutions', 'indoor', 'outdoor']",51.0,"['Weinbaumuseum - Schloss Rametz', 'Rohrerhaus', 'Museum Schloss Moos-Schulthaus']","['Südtiroler Burgeninstitut - Burg Taufers', 'Acquarena', 'Naturmuseum Südtirol']","['Südtiroler Burgeninstitut - Burg Taufers', 'Acquarena', 'Naturmuseum Südtirol']",16
Südtiroler Burgeninstitut - Burg Taufers,106,46.9259583,11.977367,Museum,"['cultural and religious institutions', 'indoor', 'outdoor']",23.0,"['Kuratorium des Stiftes Innichen', 'Museum Schloss Moos-Schulthaus', 'Archeoparc Villanders']","['Messner Mountain Museum Ripa', 'Südtiroler Bergbaumuseum Prettau', 'Messner Mountain Museum Corones']","['Mineralienmuseum Kirchler', 'Südtiroler Bergbaumuseum Prettau', 'Messner Mountain Museum Ripa']",20
Südtiroler Burgenmuseum Trostburg,107,46.595188799999995,11.5345657,Museum,"['cultural and religious institutions', 'indoor', 'outdoor']",30.0,"['Kuratorium des Stiftes Innichen', 'Museum Schloss Moos-Schulthaus', 'Archeoparc Villanders']","['Acquarena', 'Silberbergwerk Villanders', 'Schloss Prösels']","['Acquarena', 'Plose', 'Diözesanmuseum Hofburg Brixen']",38
Südtiroler Jagd- und Fischereimuseum - Schloss Wolfsthurn,108,46.8932602,11.348609300000001,Museum,"['cultural and religious institutions', 'indoor']",26.0,"['Gampen Bunker', 'Schludernser Torturm', 'Südtiroler Bergbaumuseum Kornkasten Steinhaus']","['Augustiner Chorherrenstift Neustift', 'Südtiroler Bergbaumuseum – Bergbauwelt Ridnaun Schneeberg', 'Festung Franzensfeste']","['Acquarena', 'Tourism_Agency_Events', 'Südtiroler Bergbaumuseum – Bergbauwelt Ridnaun Schneeberg']",26
Südtiroler Landesmuseum für Kultur- und Landesgeschichte -  Schloss Tirol,109,46.69443505,11.14463220930594,Museum,"['cultural and religious institutions', 'indoor', 'outdoor']",32.0,"['Kuratorium des Stiftes Innichen', 'Museum Schloss Moos-Schulthaus', 'Archeoparc Villanders']","['Landesfürstliche Burg', 'Südtiroler Archäologiemuseum', 'Landwirtschafts-museum Brunnenburg']","['Acquarena', 'Landesfürstliche Burg', 'Diözesanmuseum Hofburg Brixen']",10
Südtiroler Obstbaumuseum,110,46.5982896,11.161379400000001,Museum,"['cultural and religious institutions', 'indoor', 'outdoor']",38.0,"['Kuratorium des Stiftes Innichen', 'Museum Schloss Moos-Schulthaus', 'Archeoparc Villanders']","['Merkantilmuseum', 'Stadtmuseum Meran', 'Augustiner Chorherrenstift Neustift']","['Erlebnis Kränzelhof', 'Acquarena', 'Nesselbahn']",4
Südtiroler Volkskundemuseum,111,46.80315445,11.954545834352901,Museum,"['cultural and religious institutions', 'indoor', 'outdoor']",17.0,"['Kuratorium des Stiftes Innichen', 'Museum Schloss Moos-Schulthaus', 'Archeoparc Villanders']","['Diözesanmuseum Hofburg Brixen', 'Messner Mountain Museum Ripa', 'Messner Mountain Museum Corones']","['Acquarena', 'Messner Mountain Museum Ripa', 'Schloss Rodenegg']",54
Südtiroler Weinmuseum,112,46.4127576,11.2460979,Museum,"['events', 'cultural and religious institutions', 'indoor']",47.0,"['Tauferer Torturm', 'Museum Ladin Ursus ladinicus', 'Feuerwehrhelmmuseum']","['Messner Mountain Museum Firmian', 'Südtiroler Archäologiemuseum', 'Acquarena']","['Acquarena', 'Schreibmaschinenmuseum ""Peter Mitterhofer""', 'Schloss Velthurns']",0
Plose,114,46.6980157,11.6826829,Transport,"['events', 'sport and recreation facilities', 'tourism paths, trails and roads', 'outdoor', 'food&shopping']",1.0,"['Nesselbahn', 'Gitschberg Meransen', 'Jochtal']","['Pfannenspitze', 'Südtiroler Archäologiemuseum', 'Palmschoß']","['Acquarena', 'Pfannenspitze', 'Diözesanmuseum Hofburg Brixen']",68757
Tauferer Torturm,115,46.66989,10.5526392,Museum,"['events', 'cultural and religious institutions', 'indoor']",69.0,"['Museum Ladin Ursus ladinicus', 'Feuerwehrhelmmuseum', 'Schloss Prösels']","['Messner Mountain Museum Juval', 'Schludernser Torturm', 'Naturmuseum Südtirol']","['Acquarena', 'Schreibmaschinenmuseum ""Peter Mitterhofer""', 'Schloss Velthurns']",0
Tourism_Agency_Events,116,46.7148875,11.6547867,Museum,"['events', 'tourism paths, trails and roads', 'indoor', 'outdoor']",9.0,"['Rohrerhaus', 'Jaufenburg', 'Museum Ladin Ursus ladinicus']","['Plose', 'Augustiner Chorherrenstift Neustift', 'Diözesanmuseum Hofburg Brixen']","['Plose', 'Augustiner Chorherrenstift Neustift', 'Diözesanmuseum Hofburg Brixen']",637
Ultner Talmuseum,117,46.5114924,10.923834300000001,Museum,"['cultural and religious institutions', 'indoor']",99.0,"['Schludernser Torturm', 'Südtiroler Bergbaumuseum Kornkasten Steinhaus', 'Landwirtschafts-museum Brunnenburg']","['Acquarena', 'Schreibmaschinenmuseum ""Peter Mitterhofer""', 'Schloss Velthurns']","['Acquarena', 'Schreibmaschinenmuseum ""Peter Mitterhofer""', 'Schloss Velthurns']",0
Vertikale Kletterzentrum Brixen,118,46.7201794,11.656904283750894,Sportstätte,"['events', 'sport and recreation facilities', 'indoor']",99.0,"['Schwimmbad Alpinpool', 'Freischwimmbad Klausen', 'Minigolf Meransen']","['Acquarena', 'Schreibmaschinenmuseum ""Peter Mitterhofer""', 'Schloss Velthurns']","['Acquarena', 'Schreibmaschinenmuseum ""Peter Mitterhofer""', 'Schloss Velthurns']",0
Vintschger Museum,119,46.6649343,10.586373606046504,Museum,"['cultural and religious institutions', 'indoor']",99.0,"['Schludernser Torturm', 'Südtiroler Bergbaumuseum Kornkasten Steinhaus', 'Landwirtschafts-museum Brunnenburg']","['Acquarena', 'Schreibmaschinenmuseum ""Peter Mitterhofer""', 'Schloss Velthurns']","['Acquarena', 'Schreibmaschinenmuseum ""Peter Mitterhofer""', 'Schloss Velthurns']",0
Weinbaumuseum - Schloss Rametz,121,46.668730700000005,11.185228,Museum,"['events', 'cultural and religious institutions', 'indoor', 'outdoor', 'food&shopping']",99.0,"['Erlebniswelt Capriz', 'Messner Mountain Museum Ortles', 'Südtiroler Bergbaumuseum Prettau']","['Acquarena', 'Schreibmaschinenmuseum ""Peter Mitterhofer""', 'Schloss Velthurns']","['Acquarena', 'Schreibmaschinenmuseum ""Peter Mitterhofer""', 'Schloss Velthurns']",0
